,CD_OSCAR,DC_NOME,FL_CAPITAL,DT_FIM_OPERACAO,CD_SITUACAO,TP_ESTACAO,VL_LATITUDE,CD_WSI,CD_DISTRITO,VL_ALTITUDE,SG_ESTADO,SG_ENTIDADE,CD_ESTACAO,VL_LONGITUDE,DT_INICIO_OPERACAO,geometry,bacia
57,0-2000-0-86867,BARRA BONITA,,,Operante,Automatica,-22.4711111,0-76-0-3505302000000348, 07,533.68,SP,INMET,A741,-48.5575,2008-04-23T21:00:00.000-03:00,POINT (-48.5575 -22.4711111),Barra Bonita-Promissão
64,0-2000-0-86865,BAURU,N,,Operante,Automatica,-22.358052,0-76-0-3506003000000010, 07,636.17,SP,INMET,A705,-49.028877,2001-08-29T21:00:00.000-03:00,POINT (-49.028877 -22.358052),Barra Bonita-Promissão
245,0-2000-0-86843,IBITINGA,N,,Pane,Automatica,-21.85555555,0-76-0-3519600000000267, 07,496.75,SP,INMET,A737,-48.79972221,2007-11-08T21:00:00.000-03:00,POINT (-48.79972221 -21.85555555),Barra Bonita-Promissão
314,0-2000-0-86840,LINS,N,,Pane,Automatica,-21.66611111,0-76-0-3527108000000105, 07,460.65,SP,INMET,A727,-49.73472221,2006-09-19T21:00:00.000-03:00,POINT (-49.73472221 -21.66611111),Barra Bonita-Promissão
504,0-2000-0-86845,SAO CARLOS,N,,Operante,Automatica,-21.980353,0-76-0-3548906000000104, 07,859.29,SP,INMET,A711,-47.883927,2006-09-03T21:00:00.000-03:00,POINT (-47.883927 -21.980353),Barra Bonita-Promissão
5,0-2000-0-86716,AGUAS EMENDADAS,,,Operante,Automatica,-15.596491,0-76-0-5300108000000435, 10,1030.36,DF,INMET,A045,-47.625801,2008-10-02T21:00:00.000-03:00,POINT (-47.625801 -15.596491),São Simão
38,0-2000-0-86796,ARAXA,N,,Operante,Automatica,-19.605696,0-76-0-3104007000000037, 05,1018.32,MG,INMET,A505,-46.949617,2002-12-18T22:00:00.000-02:00,POINT (-46.949617 -19.605696),São Simão
83,0-2000-0-86715,BRASILIA,N,,Operante,Automatica,-15.78944444,0-76-0-5300108000000001, 10,1160.96,DF,INMET,A001,-47.92583332,2000-05-06T21:00:00.000-03:00,POINT (-47.92583332 -15.78944444),São Simão
142,0-2000-0-86777,CATALAO,N,,Operante,Automatica,-18.154779,0-76-0-5205109000000286, 10,900.72,GO,INMET,A034,-47.927614,2008-01-30T21:00:00.000-03:00,POINT (-47.927614 -18.154779),São Simão
169,0-2000-0-86727,CRISTALINA (FAZENDA SANTA MONICA),N,,Operante,Automatica,-16.39944444,0-76-0-5206206000000570, 10,932,GO,INMET,A056,-47.62583332,2018-01-24T21:00:00.000-03:00,POINT (-47.62583332 -16.39944444),São Simão
199,0-2000-0-86754,EDEIA,N,,Operante,Automatica,-17.33694444,0-76-0-5207402000000556, 10,608,GO,INMET,A029,-49.91472222,2017-08-25T21:00:00.000-03:00,POINT (-49.91472222 -17.33694444),São Simão
223,0-2000-0-86717,GAMA (PONTE ALTA),N,,Operante,Automatica,-15.93527777,0-76-0-5300108000000496, 10,990,DF,INMET,A046,-48.13749999,2014-09-30T21:00:00.000-03:00,POINT (-48.13749999 -15.93527777),São Simão
229,0-2000-0-86734,GOIANIA,N,,Operante,Automatica,-16.642841,0-76-0-5208707000000007, 10,727.3,GO,INMET,A002,-49.220222,2001-05-28T21:00:00.000-03:00,POINT (-49.220222 -16.642841),São Simão
280,0-2000-0-86775,ITUIUTABA,N,,Operante,Automatica,-18.95277777,0-76-0-3134202000000076, 05,540.08,MG,INMET,A512,-49.52499999,2006-05-11T21:00:00.000-03:00,POINT (-49.52499999 -18.95277777),São Simão
281,0-2000-0-86774,ITUMBIARA,N,,Operante,Automatica,-18.40972222,0-76-0-5211503000000261, 10,491.17,GO,INMET,A035,-49.19194444,2007-10-31T21:00:00.000-03:00,POINT (-49.19194444 -18.40972222),São Simão
316,0-2000-0-86736,LUZIANIA,N,,Operante,Automatica,-16.26055555,0-76-0-5212501000000120, 10,1000.82,GO,INMET,A012,-47.96694443,2006-10-20T21:00:00.000-03:00,POINT (-47.96694443 -16.26055555),São Simão
355,0-2000-0-86755,MORRINHOS,N,,Operante,Automatica,-17.745066,0-76-0-5213806000000006, 10,751.09,GO,INMET,A003,-49.101698,2001-05-24T21:00:00.000-03:00,POINT (-49.101698 -17.745066),São Simão
396,0-2000-0-86732,PARAUNA,N,,Operante,Automatica,-16.962536,0-76-0-5216403000000324, 10,678.74,GO,INMET,A027,-50.42545,2008-03-28T21:00:00.000-03:00,POINT (-50.42545 -16.962536),São Simão
405,0-2000-0-86778,PATROCINIO,N,,Operante,Automatica,-18.996684,0-76-0-3148103000000097, 05,978.11,MG,INMET,A523,-46.985935,2006-08-21T21:00:00.000-03:00,POINT (-46.985935 -18.996684),São Simão
421,0-2000-0-86756,PIRES DO RIO,N,,Operante,Automatica,-17.30416666,0-76-0-5217401000000255, 10,757.27,GO,INMET,A033,-48.28416666,2007-10-11T21:00:00.000-03:00,POINT (-48.28416666 -17.30416666),São Simão
472,0-2000-0-86753,RIO VERDE,N,,Operante,Automatica,-17.78527777,0-76-0-5218805000000184, 10,780.11,GO,INMET,A025,-50.965,2007-05-16T21:00:00.000-03:00,POINT (-50.965 -17.78527777),São Simão
548,0-2000-0-86735,SILVANIA,,,Operante,Automatica,-16.67972221,0-76-0-5220603000000469, 10,952,GO,INMET,A037,-48.61805554,2010-10-07T21:00:00.000-03:00,POINT (-48.61805554 -16.67972221),São Simão
581,0-2000-0-86776,UBERLANDIA,N,,Operante,Automatica,-18.91694443,0-76-0-3170206000000036, 05,874.77,MG,INMET,A507,-48.25555555,2002-12-17T22:00:00.000-02:00,POINT (-48.25555555 -18.91694443),São Simão
51,0-2000-0-86806,BAMBUI,N,,Operante,Automatica,-20.0311111,0-76-0-3105103000000534, 05,697,MG,INMET,A565,-46.00888888,2016-11-22T21:00:00.000-03:00,POINT (-46.00888888 -20.0311111),Três Marias
184,,DIVINOPOLIS,N,,Operante,Automatica,-20.17333332,0-76-0-3122306000000565, 05,796,MG,INMET,A564,-44.87499999,2017-10-25T21:00:00.000-03:00,POINT (-44.87499999 -20.17333332),Três Marias
189,0-2000-0-86797,DORES DO INDAIA,N,,Operante,Automatica,-19.481935,0-76-0-3123205000000205, 05,721.09,MG,INMET,A536,-45.593932,2007-05-31T21:00:00.000-03:00,POINT (-45.593932 -19.481935),Três Marias
212,0-2000-0-86798,FLORESTAL,N,,Operante,Automatica,-19.885398,0-76-0-3126000000000392, 05,753.5,MG,INMET,A535,-44.416883,2008-06-26T21:00:00.000-03:00,POINT (-44.416883 -19.885398),Três Marias
380,0-2000-0-86823,OURO BRANCO,N,,Operante,Automatica,-20.55666666,0-76-0-3145901000000091, 05,1048.2,MG,INMET,A513,-43.75611111,2006-07-27T21:00:00.000-03:00,POINT (-43.75611111 -20.55666666),Três Marias
427,0-2000-0-86788,POMPEU,N,,Operante,Automatica,-19.23249999,0-76-0-3152006000000504, 05,705,MG,INMET,A560,-44.96416666,2015-08-20T21:00:00.000-03:00,POINT (-44.96416666 -19.23249999),Três Marias
572,0-2000-0-86779,TRES MARIAS,N,,Operante,Automatica,-18.200855,0-76-0-3169356000000100, 05,931.01,MG,INMET,A528,-45.459836,2006-08-24T21:00:00.000-03:00,POINT (-45.459836 -18.200855),Três Marias
75,0-2000-0-86968,BOM JARDIM DA SERRA - MORRO DA IGREJA,N,,Operante,Automatica,-28.126992,0-76-0-4218905000000213, 08,1790.38,SC,INMET,A845,-49.47961,2007-06-16T21:00:00.000-03:00,POINT (-49.47961 -28.126992),Itá
95,0-2000-0-86943,CACADOR,N,,Operante,Automatica,-26.819156,0-76-0-4203006000000319, 08,944.26,SC,INMET,A859,-50.98552,2008-03-18T21:00:00.000-03:00,POINT (-50.98552 -26.819156),Itá
121,,CAMPOS NOVOS,N,,Operante,Automatica,-27.3886111,0-76-0-4203600000000587, 08,963,SC,INMET,A898,-51.21583333,2019-02-14T21:00:00.000-03:00,POINT (-51.21583333 -27.3886111),Itá
177,0-2000-0-86956,CURITIBANOS,N,,Operante,Automatica,-27.288624,0-76-0-4204806000000296, 08,978.1,SC,INMET,A860,-50.604283,2008-02-27T21:00:00.000-03:00,POINT (-50.604283 -27.288624),Itá
297,0-2000-0-86955,JOACABA,N,,Operante,Automatica,-27.16916666,0-76-0-4209003000000254, 08,767.63,SC,INMET,A841,-51.55888888,2007-09-19T21:00:00.000-03:00,POINT (-51.55888888 -27.16916666),Itá
307,0-2000-0-86932,LAGES,,,Operante,Automatica,-27.80222222,0-76-0-4209300000000497, 08,952.7,SC,INMET,A865,-50.33555555,2014-11-05T21:00:00.000-03:00,POINT (-50.33555555 -27.80222222),Itá
309,0-2000-0-86965,LAGOA VERMELHA,N,,Operante,Automatica,-28.222381,0-76-0-4311304000000175, 08,833.83,RS,INMET,A844,-51.512845,2007-03-01T21:00:00.000-03:00,POINT (-51.512845 -28.222381),Itá
512,0-2000-0-86969,SAO JOAQUIM,N,,Operante,Automatica,-28.27564,0-76-0-4216503000000336, 08,1400.06,SC,INMET,A815,-49.934617,2008-04-11T21:00:00.000-03:00,POINT (-49.934617 -28.27564),Itá
589,0-2000-0-86966,VACARIA,,,Operante,Automatica,-28.513602,0-76-0-4322509000000350, 08,969.89,RS,INMET,A880,-50.882738,2008-04-25T21:00:00.000-03:00,POINT (-50.882738 -28.513602),Itá
154,0-2000-0-86928,COLOMBO,N,,Operante,Automatica,-25.322464,0-76-0-4105805000000516, 08,950,PR,INMET,B806,-49.157733,2016-05-31T21:00:00.000-03:00,POINT (-49.157733 -25.322464),Foz do Areia
176,0-2000-0-86933,CURITIBA,N,,Operante,Automatica,-25.4486111,0-76-0-4106902000000046, 08,922.91,PR,INMET,A807,-49.23055554,2003-01-27T22:00:00.000-02:00,POINT (-49.23055554 -25.4486111),Foz do Areia
226,0-2000-0-86941,GENERAL CARNEIRO,,,Operante,Automatica,-26.3986111,0-76-0-4108502000000356, 08,1009.01,PR,INMET,A875,-51.35361111,2008-04-29T21:00:00.000-03:00,POINT (-51.35361111 -26.3986111),Foz do Areia
253,0-2000-0-86929,INACIO MARTINS,N,,Operante,Automatica,-25.567879,0-76-0-4110201000000117, 08,1208.85,PR,INMET,A823,-51.077946,2006-10-15T21:00:00.000-03:00,POINT (-51.077946 -25.567879),Foz do Areia
324,0-2000-0-86942,MAJOR VIEIRA,,,Operante,Automatica,-26.3936111,0-76-0-4210308000000442, 08,799.58,SC,INMET,A864,-50.36333333,2009-02-08T21:00:00.000-03:00,POINT (-50.36333333 -26.3936111),Foz do Areia
467,0-2000-0-86945,RIO NEGRINHO,N,,Operante,Automatica,-26.2486111,0-76-0-4215000000000320, 08,800,SC,INMET,A862,-49.57416666,2008-03-21T21:00:00.000-03:00,POINT (-49.57416666 -26.2486111),Foz do Areia
520,0-2000-0-86931,SAO MATEUS DO SUL,,,Pane,Automatica,-25.83555555,0-76-0-4125605000000472, 08,780.21,PR,INMET,A874,-50.36888888,2011-04-16T21:00:00.000-03:00,POINT (-50.36888888 -25.83555555),Foz do Areia
85,0-2000-0-86708,BRAZLANDIA,N,,Operante,Automatica,-15.59972221,0-76-0-5300108000000551, 10,1143,DF,INMET,A042,-48.1311111,2017-07-18T21:00:00.000-03:00,POINT (-48.1311111 -15.59972221),Serra da Mesa
228,0-2000-0-86713,GOIANESIA,N,,Operante,Automatica,-15.22027777,0-76-0-5208608000000206, 10,667.01,GO,INMET,A022,-48.98999999,2007-06-01T21:00:00.000-03:00,POINT (-48.98999999 -15.22027777),Serra da Mesa
267,0-2000-0-86689,ITAPACI,N,,Operante,Automatica,-14.97972221,0-76-0-5210901000000173, 10,551.16,GO,INMET,A015,-49.53999999,2007-02-02T21:00:00.000-03:00,POINT (-49.53999999 -14.97972221),Serra da Mesa
45,0-2000-0-86904,AVARE,N,,Operante,Automatica,-23.10166666,0-76-0-3504503000000107, 07,776.36,SP,INMET,A725,-48.9411111,2006-09-21T21:00:00.000-03:00,POINT (-48.9411111 -23.10166666),Capivara
141,0-2000-0-86921,CASTRO,N,,Pane,Automatica,-24.78694444,0-76-0-4104907000000081, 08,993.6,PR,INMET,A819,-49.99916666,2006-07-08T21:00:00.000-03:00,POINT (-49.99916666 -24.78694444),Capivara
269,0-2000-0-86905,ITAPEVA,N,,Operante,Automatica,-23.98194443,0-76-0-3522406000000090, 07,743.33,SP,INMET,A714,-48.88583333,2006-07-24T21:00:00.000-03:00,POINT (-48.88583333 -23.98194443),Capivara
293,0-2000-0-86902,JAPIRA,,,Pane,Automatica,-23.77333332,0-76-0-4109708000000297, 08,692.88,PR,INMET,A871,-50.18055554,2008-02-28T21:00:00.000-03:00,POINT (-50.18055554 -23.77333332),Capivara
300,0-2000-0-86903,JOAQUIM TAVORA,N,,Operante,Automatica,-23.505266,0-76-0-4112801000000144, 08,512.67,PR,INMET,A821,-49.946387,2006-11-22T21:00:00.000-03:00,POINT (-49.946387 -23.505266),Capivara
365,0-2000-0-86901,NOVA FATIMA,N,,Pane,Automatica,-23.41527777,0-76-0-4117008000000174, 08,664.31,PR,INMET,A842,-50.57777777,2007-02-07T21:00:00.000-03:00,POINT (-50.57777777 -23.41527777),Capivara
379,0-2000-0-86866,OURINHOS,N,,Pane,Automatica,-22.94888888,0-76-0-3534708000000101, 07,443.49,SP,INMET,A716,-49.89444444,2006-08-28T21:00:00.000-03:00,POINT (-49.89444444 -22.94888888),Capivara
449,0-2000-0-86864,RANCHARIA,N,,Operante,Automatica,-22.37277777,0-76-0-3542206000000103, 07,398.75,SP,INMET,A718,-50.97472221,2006-08-31T21:00:00.000-03:00,POINT (-50.97472221 -22.37277777),Capivara
521,0-2000-0-86906,SAO MIGUEL ARCANJO,N,,Operante,Automatica,-23.85194444,0-76-0-3550209000000093, 07,675.68,SP,INMET,A715,-48.16472222,2006-08-14T21:00:00.000-03:00,POINT (-48.16472222 -23.85194444),Capivara
596,0-2000-0-86920,VENTANIA,,,Pane,Automatica,-24.28027777,0-76-0-4128534000000471, 08,1093.41,PR,INMET,A872,-50.21027777,2011-04-14T21:00:00.000-03:00,POINT (-50.21027777 -24.28027777),Capivara
53,0-2000-0-86850,BARBACENA,N,,Operante,Automatica,-21.22833332,0-76-0-3105608000000026, 05,1168.76,MG,INMET,A502,-43.76777777,2002-12-04T22:00:00.000-02:00,POINT (-43.76777777 -21.22833332),Furnas
117,0-2000-0-86872,CAMPOS DO JORDAO,N,,Operante,Automatica,-22.75027777,0-76-0-3509700000000019, 07,1662.95,SP,INMET,A706,-45.60388888,2002-03-12T21:00:00.000-03:00,POINT (-45.60388888 -22.75027777),Furnas
215,0-2000-0-86820,FORMIGA,N,,Operante,Automatica,-20.455,0-76-0-3126109000000094, 05,878.14,MG,INMET,A524,-45.45388888,2006-08-16T21:00:00.000-03:00,POINT (-45.45388888 -20.455),Furnas
276,,ITATIAIA,N,,Operante,Automatica,-22.37388888,0-76-0-3302254000000557, 06,2450,RJ,INMET,A635,-44.70305555,2017-08-31T21:00:00.000-03:00,POINT (-44.70305555 -22.37388888),Furnas
323,,MACHADO,N,,Operante,Automatica,-21.680722,0-76-0-3139003000000552, 05,969,MG,INMET,A567,-45.944389,2017-07-20T21:00:00.000-03:00,POINT (-45.944389 -21.680722),Furnas
335,0-2000-0-86871,MARIA DA FE,N,,Operante,Automatica,-22.314567,0-76-0-3139904000000151, 05,1281.43,MG,INMET,A531,-45.373049,2006-11-30T21:00:00.000-03:00,POINT (-45.373049 -22.314567),Furnas
377,,OLIVEIRA,N,,Operante,Automatica,-20.715,0-76-0-3145604000000560, 05,1025,MG,INMET,A570,-44.86444444,2017-10-18T21:00:00.000-03:00,POINT (-44.86444444 -20.715),Furnas
400,0-2000-0-86873,PASSA QUATRO,N,,Operante,Automatica,-22.395799,0-76-0-3147600000000201, 05,1017.1,MG,INMET,A529,-44.961909,2007-05-29T21:00:00.000-03:00,POINT (-44.961909 -22.395799),Furnas
510,0-2000-0-86849,SAO JOAO DEL REI,N,,Operante,Automatica,-21.106502,0-76-0-3162500000000078, 05,929.88,MG,INMET,A514,-44.250928,2006-06-08T21:00:00.000-03:00,POINT (-44.250928 -21.106502),Furnas
594,0-2000-0-86848,VARGINHA,N,,Operante,Automatica,-21.56638888,0-76-0-3170701000000083, 05,949.78,MG,INMET,A515,-45.40416666,2006-07-12T21:00:00.000-03:00,POINT (-45.40416666 -21.56638888),Furnas
42,0-2000-0-86841,ARIRANHA,N,,Operante,Automatica,-21.13305554,0-76-0-3503703000000271, 07,525.44,SP,INMET,A736,-48.84055555,2007-11-12T21:00:00.000-03:00,POINT (-48.84055555 -21.13305554),Água Vermelha
53,0-2000-0-86850,BARBACENA,N,,Operante,Automatica,-21.22833332,0-76-0-3105608000000026, 05,1168.76,MG,INMET,A502,-43.76777777,2002-12-04T22:00:00.000-02:00,POINT (-43.76777777 -21.22833332),Água Vermelha
61,0-2000-0-86816,BARRETOS,N,,Pane,Automatica,-20.55916666,0-76-0-3505500000000460, 07,534.36,SP,INMET,A748,-48.54499999,2010-06-18T21:00:00.000-03:00,POINT (-48.54499999 -20.55916666),Água Vermelha
65,,BEBEDOURO,N,,Pane,Automatica,-20.94916666,0-76-0-3506102000000528, 07,790,SP,INMET,A764,-48.48999999,2016-10-26T21:00:00.000-03:00,POINT (-48.48999999 -20.94916666),Água Vermelha
102,0-2000-0-86846,CALDAS,N,,Operante,Automatica,-21.918066,0-76-0-3110301000000148, 05,1077.34,MG,INMET,A530,-46.382996,2006-11-27T21:00:00.000-03:00,POINT (-46.382996 -21.918066),Água Vermelha
111,0-2000-0-86793,CAMPINA VERDE,N,,Operante,Automatica,-19.53921,0-76-0-3111101000000085, 05,559.07,MG,INMET,A519,-49.518133,2006-07-14T21:00:00.000-03:00,POINT (-49.518133 -19.53921),Água Vermelha
117,0-2000-0-86872,CAMPOS DO JORDAO,N,,Operante,Automatica,-22.75027777,0-76-0-3509700000000019, 07,1662.95,SP,INMET,A706,-45.60388888,2002-03-12T21:00:00.000-03:00,POINT (-45.60388888 -22.75027777),Água Vermelha
137,0-2000-0-86844,CASA BRANCA,N,,Pane,Automatica,-21.78055554,0-76-0-3510807000000216, 07,734.15,SP,INMET,A738,-47.07527777,2007-06-24T21:00:00.000-03:00,POINT (-47.07527777 -21.78055554),Água Vermelha
156,0-2000-0-86794,CONCEICAO DAS ALAGOAS,N,,Operante,Automatica,-19.98586,0-76-0-3117306000000087, 05,572.54,MG,INMET,A520,-48.151574,2006-07-17T21:00:00.000-03:00,POINT (-48.151574 -19.98586),Água Vermelha
215,0-2000-0-86820,FORMIGA,N,,Operante,Automatica,-20.455,0-76-0-3126109000000094, 05,878.14,MG,INMET,A524,-45.45388888,2006-08-16T21:00:00.000-03:00,POINT (-45.45388888 -20.455),Água Vermelha
221,0-2000-0-86818,FRANCA,N,,Operante,Automatica,-20.58444444,0-76-0-3516200000000031, 07,1002.74,SP,INMET,A708,-47.38249999,2002-12-11T22:00:00.000-02:00,POINT (-47.38249999 -20.58444444),Água Vermelha
271,0-2000-0-86869,ITAPIRA,N,,Pane,Automatica,-22.415,0-76-0-3522604000000263, 07,634.89,SP,INMET,A739,-46.80527777,2007-11-04T21:00:00.000-03:00,POINT (-46.80527777 -22.415),Água Vermelha
276,,ITATIAIA,N,,Operante,Automatica,-22.37388888,0-76-0-3302254000000557, 06,2450,RJ,INMET,A635,-44.70305555,2017-08-31T21:00:00.000-03:00,POINT (-44.70305555 -22.37388888),Água Vermelha
283,0-2000-0-86817,ITUVERAVA,,,Operante,Automatica,-20.35972222,0-76-0-3524105000000403, 07,610.58,SP,INMET,A753,-47.77527777,2008-07-16T21:00:00.000-03:00,POINT (-47.77527777 -20.35972222),Água Vermelha
323,,MACHADO,N,,Operante,Automatica,-21.680722,0-76-0-3139003000000552, 05,969,MG,INMET,A567,-45.944389,2017-07-20T21:00:00.000-03:00,POINT (-45.944389 -21.680722),Água Vermelha
335,0-2000-0-86871,MARIA DA FE,N,,Operante,Automatica,-22.314567,0-76-0-3139904000000151, 05,1281.43,MG,INMET,A531,-45.373049,2006-11-30T21:00:00.000-03:00,POINT (-45.373049 -22.314567),Água Vermelha
377,,OLIVEIRA,N,,Operante,Automatica,-20.715,0-76-0-3145604000000560, 05,1025,MG,INMET,A570,-44.86444444,2017-10-18T21:00:00.000-03:00,POINT (-44.86444444 -20.715),Água Vermelha
400,0-2000-0-86873,PASSA QUATRO,N,,Operante,Automatica,-22.395799,0-76-0-3147600000000201, 05,1017.1,MG,INMET,A529,-44.961909,2007-05-29T21:00:00.000-03:00,POINT (-44.961909 -22.395799),Água Vermelha
402,0-2000-0-86819,PASSOS,N,,Operante,Automatica,-20.745237,0-76-0-3147907000000086, 05,781.7,MG,INMET,A516,-46.633916,2006-07-15T21:00:00.000-03:00,POINT (-46.633916 -20.745237),Água Vermelha
439,0-2000-0-86842,PRADOPOLIS,,,Operante,Automatica,-21.33833333,0-76-0-3518859000000346, 07,540.41,SP,INMET,A747,-48.11388888,2008-04-21T21:00:00.000-03:00,POINT (-48.11388888 -21.33833333),Água Vermelha
478,0-2000-0-86795,SACRAMENTO,N,,Operante,Automatica,-19.87527777,0-76-0-3156908000000095, 05,913.12,MG,INMET,A525,-47.43416666,2006-08-18T21:00:00.000-03:00,POINT (-47.43416666 -19.87527777),Água Vermelha
510,0-2000-0-86849,SAO JOAO DEL REI,N,,Operante,Automatica,-21.106502,0-76-0-3162500000000078, 05,929.88,MG,INMET,A514,-44.250928,2006-06-08T21:00:00.000-03:00,POINT (-44.250928 -21.106502),Água Vermelha
529,0-2000-0-86811,SAO SEBASTIAO DO PARAISO,N,,Pane,Automatica,-20.91,0-76-0-3164704000000501, 05,845,MG,INMET,A561,-47.11416666,2015-08-16T21:00:00.000-03:00,POINT (-47.11416666 -20.91),Água Vermelha
531,,SAO SIMAO,N,,Operante,Automatica,-21.46111111,0-76-0-3550902000000592, 07,620,SP,INMET,A770,-47.57944443,2019-07-02T21:00:00.000-03:00,POINT (-47.57944443 -21.46111111),Água Vermelha
580,,UBERABA,N,,Operante,Automatica,-19.71,0-76-0-3170107000000549, 05,778,MG,INMET,A568,-47.96194444,2017-05-18T21:00:00.000-03:00,POINT (-47.96194444 -19.71),Água Vermelha
594,0-2000-0-86848,VARGINHA,N,,Operante,Automatica,-21.56638888,0-76-0-3170701000000083, 05,949.78,MG,INMET,A515,-45.40416666,2006-07-12T21:00:00.000-03:00,POINT (-45.40416666 -21.56638888),Água Vermelha
603,0-2000-0-86815,VOTUPORANGA,N,,Operante,Automatica,-20.40333333,0-76-0-3557105000000154, 07,510.37,SP,INMET,A729,-49.96611111,2006-12-03T21:00:00.000-03:00,POINT (-49.96611111 -20.40333333),Água Vermelha
168,0-2000-0-86737,CRISTALINA,,,Operante,Automatica,-16.78499999,0-76-0-5206206000000280, 10,1211.08,GO,INMET,A036,-47.61305555,2007-12-13T21:00:00.000-03:00,POINT (-47.61305555 -16.78499999),Emborcação
169,0-2000-0-86727,CRISTALINA (FAZENDA SANTA MONICA),N,,Operante,Automatica,-16.39944444,0-76-0-5206206000000570, 10,932,GO,INMET,A056,-47.62583332,2018-01-24T21:00:00.000-03:00,POINT (-47.62583332 -16.39944444),Emborcação
238,0-2000-0-86757,GUARDA-MOR,N,,Pane,Automatica,-17.56138888,0-76-0-3128600000000225, 05,997.01,MG,INMET,A546,-47.19916666,2007-07-10T21:00:00.000-03:00,POINT (-47.19916666 -17.56138888),Emborcação
404,,PATOS DE MINAS,N,,Operante,Automatica,-18.52055554,0-76-0-3148004000000545, 05,950,MG,INMET,A562,-46.44055555,2017-05-11T21:00:00.000-03:00,POINT (-46.44055555 -18.52055554),Emborcação
45,0-2000-0-86904,AVARE,N,,Operante,Automatica,-23.10166666,0-76-0-3504503000000107, 07,776.36,SP,INMET,A725,-48.9411111,2006-09-21T21:00:00.000-03:00,POINT (-48.9411111 -23.10166666),Rosana
141,0-2000-0-86921,CASTRO,N,,Pane,Automatica,-24.78694444,0-76-0-4104907000000081, 08,993.6,PR,INMET,A819,-49.99916666,2006-07-08T21:00:00.000-03:00,POINT (-49.99916666 -24.78694444),Rosana
269,0-2000-0-86905,ITAPEVA,N,,Operante,Automatica,-23.98194443,0-76-0-3522406000000090, 07,743.33,SP,INMET,A714,-48.88583333,2006-07-24T21:00:00.000-03:00,POINT (-48.88583333 -23.98194443),Rosana
293,0-2000-0-86902,JAPIRA,,,Pane,Automatica,-23.77333332,0-76-0-4109708000000297, 08,692.88,PR,INMET,A871,-50.18055554,2008-02-28T21:00:00.000-03:00,POINT (-50.18055554 -23.77333332),Rosana
300,0-2000-0-86903,JOAQUIM TAVORA,N,,Operante,Automatica,-23.505266,0-76-0-4112801000000144, 08,512.67,PR,INMET,A821,-49.946387,2006-11-22T21:00:00.000-03:00,POINT (-49.946387 -23.505266),Rosana
339,0-2000-0-86899,MARINGA,N,,Operante,Automatica,-23.40527777,0-76-0-4115200000000142, 08,548.51,PR,INMET,A835,-51.93277777,2006-11-20T21:00:00.000-03:00,POINT (-51.93277777 -23.40527777),Rosana
365,0-2000-0-86901,NOVA FATIMA,N,,Pane,Automatica,-23.41527777,0-76-0-4117008000000174, 08,664.31,PR,INMET,A842,-50.57777777,2007-02-07T21:00:00.000-03:00,POINT (-50.57777777 -23.41527777),Rosana
379,0-2000-0-86866,OURINHOS,N,,Pane,Automatica,-22.94888888,0-76-0-3534708000000101, 07,443.49,SP,INMET,A716,-49.89444444,2006-08-28T21:00:00.000-03:00,POINT (-49.89444444 -22.94888888),Rosana
392,0-2000-0-86862,PARANAPOEMA,N,,Pane,Automatica,-22.65833333,0-76-0-4118303000000302, 08,308.7,PR,INMET,A850,-52.13444444,2008-03-03T21:00:00.000-03:00,POINT (-52.13444444 -22.65833333),Rosana
449,0-2000-0-86864,RANCHARIA,N,,Operante,Automatica,-22.37277777,0-76-0-3542206000000103, 07,398.75,SP,INMET,A718,-50.97472221,2006-08-31T21:00:00.000-03:00,POINT (-50.97472221 -22.37277777),Rosana
521,0-2000-0-86906,SAO MIGUEL ARCANJO,N,,Operante,Automatica,-23.85194444,0-76-0-3550209000000093, 07,675.68,SP,INMET,A715,-48.16472222,2006-08-14T21:00:00.000-03:00,POINT (-48.16472222 -23.85194444),Rosana
596,0-2000-0-86920,VENTANIA,,,Pane,Automatica,-24.28027777,0-76-0-4128534000000471, 08,1093.41,PR,INMET,A872,-50.21027777,2011-04-14T21:00:00.000-03:00,POINT (-50.21027777 -24.28027777),Rosana
57,0-2000-0-86867,BARRA BONITA,,,Operante,Automatica,-22.4711111,0-76-0-3505302000000348, 07,533.68,SP,INMET,A741,-48.5575,2008-04-23T21:00:00.000-03:00,POINT (-48.5575 -22.4711111),Promissão
62,0-2000-0-86908,BARUERI,,,Operante,Automatica,-23.52388888,0-76-0-3510609000000470, 07,776.5,SP,INMET,A755,-46.86944443,2011-03-28T21:00:00.000-03:00,POINT (-46.86944443 -23.52388888),Promissão
64,0-2000-0-86865,BAURU,N,,Operante,Automatica,-22.358052,0-76-0-3506003000000010, 07,636.17,SP,INMET,A705,-49.028877,2001-08-29T21:00:00.000-03:00,POINT (-49.028877 -22.358052),Promissão
81,,BRAGANCA PAULISTA,N,,Operante,Automatica,-22.951944,0-76-0-3507605000000569, 07,891,SP,INMET,A744,-46.530556,2017-12-19T21:00:00.000-03:00,POINT (-46.530556 -22.951944),Promissão
245,0-2000-0-86843,IBITINGA,N,,Pane,Automatica,-21.85555555,0-76-0-3519600000000267, 07,496.75,SP,INMET,A737,-48.79972221,2007-11-08T21:00:00.000-03:00,POINT (-48.79972221 -21.85555555),Promissão
314,0-2000-0-86840,LINS,N,,Pane,Automatica,-21.66611111,0-76-0-3527108000000105, 07,460.65,SP,INMET,A727,-49.73472221,2006-09-19T21:00:00.000-03:00,POINT (-49.73472221 -21.66611111),Promissão
350,0-2000-0-86870,MONTE VERDE,N,,Operante,Automatica,-22.86166666,0-76-0-3110509000000071, 05,1544.89,MG,INMET,A509,-46.04333333,2004-12-18T21:00:00.000-03:00,POINT (-46.04333333 -22.86166666),Promissão
418,0-2000-0-86868,PIRACICABA,N,,Pane,Automatica,-22.70305555,0-76-0-3538709000000110, 07,566.46,SP,INMET,A726,-47.62333332,2006-09-25T21:00:00.000-03:00,POINT (-47.62333332 -22.70305555),Promissão
504,0-2000-0-86845,SAO CARLOS,N,,Operante,Automatica,-21.980353,0-76-0-3548906000000104, 07,859.29,SP,INMET,A711,-47.883927,2006-09-03T21:00:00.000-03:00,POINT (-47.883927 -21.980353),Promissão
524,0-2000-0-86909,SAO PAULO - INTERLAGOS,N,,Operante,Automatica,-23.724501,0-76-0-3550308000000573, 07,771,SP,INMET,A771,-46.677501,2018-03-13T21:00:00.000-03:00,POINT (-46.677501 -23.724501),Promissão
525,0-2000-0-86910,SAO PAULO - MIRANTE,N,,Operante,Automatica,-23.496294,0-76-0-3550308000000089, 07,785.64,SP,INMET,A701,-46.620088,2006-07-24T21:00:00.000-03:00,POINT (-46.620088 -23.496294),Promissão
553,0-2000-0-86907,SOROCABA,N,,Operante,Automatica,-23.4261111,0-76-0-3552205000000098, 07,609.33,SP,INMET,A713,-47.58555555,2006-08-21T21:00:00.000-03:00,POINT (-47.58555555 -23.4261111),Promissão
11,0-2000-0-86627,ALMAS,N,,Operante,Automatica,-11.28416666,0-76-0-1700400000000508, 10,503,TO,INMET,A053,-47.21222222,2016-03-31T21:00:00.000-03:00,POINT (-47.21222222 -11.28416666),Tocantins
15,0-2000-0-86749,ALTO ARAGUAIA,N,,Operante,Automatica,-17.33944444,0-76-0-5100300000000477, 09,753.28,MT,INMET,A909,-53.22444443,2011-09-21T21:00:00.000-03:00,POINT (-53.22444443 -17.33944444),Tocantins
16,0-2000-0-86691,ALTO PARAISO DE GOIAS,N,,Operante,Automatica,-14.13305554,0-76-0-5200605000000208, 10,1264.7,GO,INMET,A024,-47.52333332,2007-06-03T21:00:00.000-03:00,POINT (-47.52333332 -14.13305554),Tocantins
31,0-2000-0-86709,ARAGARCAS,N,,Operante,Automatica,-15.90277777,0-76-0-5201702000000229, 10,327.35,GO,INMET,A013,-52.24527777,2007-07-12T21:00:00.000-03:00,POINT (-52.24527777 -15.90277777),Tocantins
32,0-2000-0-86648,ARAGUACU,N,,Operante,Automatica,-12.59222221,0-76-0-1702000000000502, 10,231,TO,INMET,A054,-49.5286111,2015-08-18T21:00:00.000-03:00,POINT (-49.5286111 -12.59222221),Tocantins
33,0-2000-0-81900,ARAGUAINA,N,,Pane,Automatica,-7.10388888,0-76-0-1702109000000172, 10,230.76,TO,INMET,A021,-48.20111111,2007-01-25T21:00:00.000-03:00,POINT (-48.20111111 -7.10388888),Tocantins
34,0-2000-0-81821,ARAGUATINS,,,Pane,Automatica,-5.6436111,0-76-0-1702208000000443, 10,130.71,TO,INMET,A044,-48.11194444,2009-03-11T21:00:00.000-03:00,POINT (-48.11194444 -5.6436111),Tocantins
99,0-2000-0-86730,CAIAPONIA,N,,Operante,Automatica,-16.96694443,0-76-0-5204409000000188, 10,740.1,GO,INMET,A023,-51.81749999,2007-05-20T21:00:00.000-03:00,POINT (-51.81749999 -16.96694443),Tocantins
116,0-2000-0-86707,CAMPO VERDE,N,,Operante,Automatica,-15.53138888,0-76-0-5102678000000143, 09,748.27,MT,INMET,A912,-55.13555555,2006-11-20T21:00:00.000-03:00,POINT (-55.13555555 -15.53138888),Tocantins
120,0-2000-0-81902,CAMPOS LINDOS,N,,Pane,Automatica,-8.15472222,0-76-0-1703842000000487, 10,426.56,TO,INMET,A043,-46.63944444,2012-10-28T21:00:00.000-03:00,POINT (-46.63944444 -8.15472222),Tocantins
135,0-2000-0-81901,CAROLINA,,,Operante,Automatica,-7.337269,0-76-0-2102804000000279, 02,182.88,MA,INMET,A205,-47.459839,2007-12-03T21:00:00.000-03:00,POINT (-47.459839 -7.337269),Tocantins
153,0-2000-0-81939,COLINAS DO TOCANTINS,N,,Operante,Automatica,-8.092708,0-76-0-1705508000000530, 10,200,TO,INMET,A049,-48.478605,2016-11-10T21:00:00.000-03:00,POINT (-48.478605 -8.092708),Tocantins
157,0-2000-0-81940,CONCEICAO DO ARAGUAIA,,,Pane,Automatica,-8.30361111,0-76-0-1502707000000419, 02,175.74,PA,INMET,A241,-49.28277777,2008-09-03T21:00:00.000-03:00,POINT (-49.28277777 -8.30361111),Tocantins
182,0-2000-0-86632,DIANOPOLIS,N,,Operante,Automatica,-11.59444444,0-76-0-1707009000000417, 10,727.87,TO,INMET,A038,-46.84722221,2008-08-29T21:00:00.000-03:00,POINT (-46.84722221 -11.59444444),Tocantins
205,0-2000-0-81863,ESTREITO,,,Pane,Automatica,-6.65333333,0-76-0-2104057000000293, 02,182.96,MA,INMET,A224,-47.41833332,2008-02-26T21:00:00.000-03:00,POINT (-47.41833332 -6.65333333),Tocantins
216,0-2000-0-86629,FORMOSO DO ARAGUAIA,N,,Operante,Automatica,-11.88749999,0-76-0-1708205000000351, 10,215.2,TO,INMET,A039,-49.60833333,2008-04-26T21:00:00.000-03:00,POINT (-49.60833333 -11.88749999),Tocantins
228,0-2000-0-86713,GOIANESIA,N,,Operante,Automatica,-15.22027777,0-76-0-5208608000000206, 10,667.01,GO,INMET,A022,-48.98999999,2007-06-01T21:00:00.000-03:00,POINT (-48.98999999 -15.22027777),Tocantins
230,0-2000-0-86712,GOIAS,N,,Operante,Automatica,-15.93972221,0-76-0-5208905000000232, 10,512.86,GO,INMET,A014,-50.14138888,2007-07-17T21:00:00.000-03:00,POINT (-50.14138888 -15.93972221),Tocantins
239,0-2000-0-86729,GUIRATINGA,,,Pane,Automatica,-16.34166666,0-76-0-5104203000000282, 09,525.43,MT,INMET,A932,-53.76611111,2008-01-23T21:00:00.000-03:00,POINT (-53.76611111 -16.34166666),Tocantins
240,0-2000-0-86630,GURUPI,N,,Operante,Automatica,-11.74583333,0-76-0-1709500000000161, 10,279.07,TO,INMET,A019,-49.04972221,2006-12-19T21:00:00.000-03:00,POINT (-49.04972221 -11.74583333),Tocantins
252,0-2000-0-81822,IMPERATRIZ,N,,Operante,Automatica,-5.555723,0-76-0-2105302000000299, 02,117.96,MA,INMET,A225,-47.459794,2008-02-29T21:00:00.000-03:00,POINT (-47.459794 -5.555723),Tocantins
257,0-2000-0-86731,IPORA,N,,Operante,Automatica,-16.42305554,0-76-0-5210208000000493, 10,610.41,GO,INMET,A028,-51.14888888,2013-06-23T21:00:00.000-03:00,POINT (-51.14888888 -16.42305554),Tocantins
267,0-2000-0-86689,ITAPACI,N,,Operante,Automatica,-14.97972221,0-76-0-5210901000000173, 10,551.16,GO,INMET,A015,-49.53999999,2007-02-02T21:00:00.000-03:00,POINT (-49.53999999 -14.97972221),Tocantins
308,0-2000-0-86602,LAGOA DA CONFUSAO,N,,Operante,Automatica,-10.828286,0-76-0-1711902000000531, 10,178,TO,INMET,A055,-49.847882,2016-11-14T21:00:00.000-03:00,POINT (-49.847882 -10.828286),Tocantins
331,0-2000-0-81820,MARABA,,,Pane,Automatica,-5.36638888,0-76-0-1504208000000449, 02,116.58,PA,INMET,A240,-49.05111111,2009-06-24T21:00:00.000-03:00,POINT (-49.05111111 -5.36638888),Tocantins
336,0-2000-0-81983,MARIANOPOLIS DO TO,N,,Operante,Automatica,-9.576389,0-76-0-1712504000000488, 10,186.69,TO,INMET,A041,-49.723333,2012-11-23T21:00:00.000-03:00,POINT (-49.723333 -9.576389000000001),Tocantins
340,0-2000-0-86608,MATEIROS,N,,Pane,Automatica,-10.43444444,0-76-0-1712702000000486, 10,791,TO,INMET,A040,-45.92194443,2012-10-24T21:00:00.000-03:00,POINT (-45.92194443 -10.43444444),Tocantins
349,0-2000-0-86670,MONTE ALEGRE DE GOIAS,,,Operante,Automatica,-13.253521,0-76-0-5213509000000211, 10,551.33,GO,INMET,A032,-46.890326,2007-06-06T21:00:00.000-03:00,POINT (-46.890326 -13.253521),Tocantins
373,0-2000-0-81784,NOVO REPARTIMENTO,N,,Operante,Automatica,-4.24388888,0-76-0-1505064000000410, 02,100.76,PA,INMET,A235,-49.93944444,2008-07-22T21:00:00.000-03:00,POINT (-49.93944444 -4.24388888),Tocantins
384,0-2000-0-86607,PALMAS,N,,Operante,Automatica,-10.190744,0-76-0-1721000000000070, 10,291.87,TO,INMET,A009,-48.301811,2004-12-16T21:00:00.000-03:00,POINT (-48.301811 -10.190744),Tocantins
390,0-2000-0-86650,PARANA,N,,Operante,Automatica,-12.615,0-76-0-1716208000000073, 10,284.96,TO,INMET,A010,-47.87194443,2005-03-03T21:00:00.000-03:00,POINT (-47.87194443 -12.615),Tocantins
407,0-2000-0-81941,PEDRO AFONSO,N,,Operante,Automatica,-8.968677,0-76-0-1716505000000170, 10,189.71,TO,INMET,A020,-48.177259,2007-01-22T21:00:00.000-03:00,POINT (-48.177259 -8.968677),Tocantins
412,0-2000-0-86649,PEIXE,N,,Operante,Automatica,-12.015377,0-76-0-1716604000000150, 10,250.87,TO,INMET,A018,-48.544517,2006-11-30T21:00:00.000-03:00,POINT (-48.544517 -12.015377),Tocantins
423,0-2000-0-86603,PIUM,N,,Operante,Automatica,-10.47694443,0-76-0-1717503000000510, 10,161,TO,INMET,A051,-49.62944443,2016-04-05T21:00:00.000-03:00,POINT (-49.62944443 -10.47694443),Tocantins
430,0-2000-0-86669,PORANGATU,N,,Operante,Automatica,-13.30944444,0-76-0-5218003000000581, 10,365,GO,INMET,A005,-49.11749999,2001-06-03T21:00:00.000-03:00,POINT (-49.11749999 -13.30944444),Tocantins
438,0-2000-0-86692,POSSE,N,,Operante,Automatica,-14.08916666,0-76-0-5218300000000181, 10,830,GO,INMET,A017,-46.36638888,2007-04-17T21:00:00.000-03:00,POINT (-46.36638888 -14.08916666),Tocantins
444,0-2000-0-86700,PRIMAVERA DO LESTE,N,,Pane,Automatica,-15.57999999,0-76-0-5107040000000566, 09,680,MT,INMET,A923,-54.3811111,2017-10-25T21:00:00.000-03:00,POINT (-54.3811111 -15.57999999),Tocantins
452,0-2000-0-81937,REDENCAO,N,,Operante,Automatica,-8.04333333,0-76-0-1506139000000593, 02,199,PA,INMET,A254,-50.00694444,2019-07-10T21:00:00.000-03:00,POINT (-50.00694444 -8.043333329999999),Tocantins
470,0-2000-0-81981,RIO SONO,N,,Operante,Automatica,-9.793363,0-76-0-1718758000000523, 10,291,TO,INMET,A050,-47.132732,2016-08-02T21:00:00.000-03:00,POINT (-47.132732 -9.793362999999999),Tocantins
486,0-2000-0-81898,SANTA FE DO ARAGUAIA,N,,Operante,Automatica,-7.124191,0-76-0-1718865000000522, 10,171,TO,INMET,A048,-48.781267,2016-07-29T21:00:00.000-03:00,POINT (-48.781267 -7.124191),Tocantins
489,,SANTA MARIA DAS BARREIRAS,N,,Operante,Automatica,-8.72972221,, 02,165,PA,INMET,A256,-49.85638888,2020-12-17T21:00:00.000-03:00,POINT (-49.85638888 -8.72972221),Tocantins
494,0-2000-0-86631,SANTA ROSA DO TOCANTINS,N,,Operante,Automatica,-11.42888888,0-76-0-1718907000000500, 10,306,TO,INMET,A052,-48.18499999,2015-08-13T21:00:00.000-03:00,POINT (-48.18499999 -11.42888888),Tocantins
496,0-2000-0-81982,SANTANA DO ARAGUAIA,N,,Pane,Automatica,-9.3386111,0-76-0-1506708000000369, 02,176.75,PA,INMET,A233,-50.35027777,2008-05-29T21:00:00.000-03:00,POINT (-50.35027777 -9.3386111),Tocantins
500,0-2000-0-86685,SANTO ANTONIO DO LESTE,,,Pane,Automatica,-14.92777777,0-76-0-1381098000000370, 09,664.21,MT,INMET,A931,-53.8836111,2008-05-29T21:00:00.000-03:00,POINT (-53.8836111 -14.92777777),Tocantins
505,0-2000-0-86628,SAO FELIX  DO ARAGUAIA,N,,Operante,Automatica,-11.61888888,0-76-0-5107859000000259, 09,201.37,MT,INMET,A921,-50.72777777,2007-10-18T21:00:00.000-03:00,POINT (-50.72777777 -11.61888888),Tocantins
522,0-2000-0-86646,SAO MIGUEL DO ARAGUAIA,N,,Operante,Automatica,-12.82055554,0-76-0-5220207000000550, 10,210,GO,INMET,A031,-50.33583333,2017-06-28T21:00:00.000-03:00,POINT (-50.33583333 -12.82055554),Tocantins
540,0-2000-0-81860,SERRA DOS CARAJAS,N,,Pane,Automatica,-6.07749999,0-76-0-1505536000000418, 02,707,PA,INMET,A230,-50.14222221,2008-09-02T21:00:00.000-03:00,POINT (-50.14222221 -6.07749999),Tocantins
541,0-2000-0-86641,SERRA NOVA DOURADA,N,,Operante,Automatica,-11.98777777,0-76-0-5100359000000590, 09,441,MT,INMET,A943,-51.4261111,2019-03-28T21:00:00.000-03:00,POINT (-51.4261111 -11.98777777),Tocantins
605,0-2000-0-81896,XINGUARA,N,,Operante,Automatica,-7.110518,0-76-0-1508407000000527, 02,245,PA,INMET,A247,-49.926072,2016-09-10T21:00:00.000-03:00,POINT (-49.926072 -7.110518),Tocantins
20,0-2000-0-86894,AMAMBAI,,,Pane,Automatica,-23.0025,0-76-0-5000609000000381, 07,433.59,MS,INMET,A750,-55.32944443,2008-06-10T21:00:00.000-03:00,POINT (-55.32944443 -23.0025),Itaipu
22,,ANGELICA,N,,Operante,Automatica,-22.148083,, 07,347,MS,INMET,S701,-53.763736,2018-04-08T21:00:00.000-03:00,POINT (-53.763736 -22.148083),Itaipu
35,,ARAL MOREIRA,N,,Operante,Automatica,-22.955,, 07,605,MS,INMET,S702,-55.6261111,2018-04-12T21:00:00.000-03:00,POINT (-55.6261111 -22.955),Itaipu
92,,CAARAPO,N,,Operante,Automatica,-22.657056,, 07,456,MS,INMET,S706,-54.819306,2018-03-02T21:00:00.000-03:00,POINT (-54.819306 -22.657056),Itaipu
109,0-2000-0-86918,CAMPINA DA LAGOA,N,,Pane,Automatica,-24.57083332,0-76-0-4103909000000524, 08,598,PR,INMET,B803,-52.80027777,2016-08-03T21:00:00.000-03:00,POINT (-52.80027777 -24.57083332),Itaipu
149,0-2000-0-86898,CIDADE GAUCHA,N,,Operante,Automatica,-23.359156,0-76-0-4105607000000314, 08,365.79,PR,INMET,A869,-52.931912,2008-03-10T21:00:00.000-03:00,POINT (-52.931912 -23.359156),Itaipu
180,0-2000-0-86861,DIAMANTE DO NORTE,N,,Pane,Automatica,-22.63944444,0-76-0-4107108000000306, 08,368.22,PR,INMET,A849,-52.89027777,2008-03-05T21:00:00.000-03:00,POINT (-52.89027777 -22.63944444),Itaipu
190,0-2000-0-86858,DOURADOS,N,,Pane,Automatica,-22.19388888,0-76-0-5003702000000118, 07,463.3,MS,INMET,A721,-54.91138888,2006-10-17T21:00:00.000-03:00,POINT (-54.91138888 -22.19388888),Itaipu
208,,FATIMA DO SUL,N,,Pane,Automatica,-22.30861111,, 07,340,MS,INMET,S708,-54.32583332,2018-02-27T21:00:00.000-03:00,POINT (-54.32583332 -22.30861111),Itaipu
231,0-2000-0-86917,GOIOERE,N,,Pane,Automatica,-24.15833333,0-76-0-4108601000000119, 08,452.34,PR,INMET,A825,-53.03055554,2006-10-18T21:00:00.000-03:00,POINT (-53.03055554 -24.15833333),Itaipu
247,0-2000-0-86897,ICARAIMA,N,,Pane,Automatica,-23.39027777,0-76-0-4109906000000139, 08,381.29,PR,INMET,A824,-53.63583333,2006-11-15T21:00:00.000-03:00,POINT (-53.63583333 -23.39027777),Itaipu
249,,IGUATEMI,N,,Operante,Automatica,-23.64444444,, 07,319,MS,INMET,S709,-54.57027777,2018-02-18T21:00:00.000-03:00,POINT (-54.57027777 -23.64444444),Itaipu
273,,ITAPORA,N,,Operante,Automatica,-22.092833,, 07,360,MS,INMET,S710,-54.798833,2018-02-25T21:00:00.000-03:00,POINT (-54.798833 -22.092833),Itaipu
275,0-2000-0-86896,ITAQUIRAI,,,Operante,Automatica,-23.449501,0-76-0-5004601000000367, 07,337.82,MS,INMET,A752,-54.181858,2008-05-27T21:00:00.000-03:00,POINT (-54.181858 -23.449501),Itaipu
284,0-2000-0-86930,IVAI,N,,Operante,Automatica,-25.01083333,0-76-0-4111407000000082, 08,803.58,PR,INMET,A818,-50.85388888,2006-07-10T21:00:00.000-03:00,POINT (-50.85388888 -25.01083333),Itaipu
285,0-2000-0-86860,IVINHEMA,N,,Operante,Automatica,-22.30055555,0-76-0-5004700000000052, 07,377.36,MS,INMET,A709,-53.82277777,2003-02-07T22:00:00.000-02:00,POINT (-53.82277777 -22.30055555),Itaipu
305,0-2000-0-86859,JUTI,,,Pane,Automatica,-22.85722222,0-76-0-5005152000000384, 07,375.18,MS,INMET,A749,-54.60555555,2008-06-15T21:00:00.000-03:00,POINT (-54.60555555 -22.85722222),Itaipu
310,,LAGUNA CARAPA,N,,Operante,Automatica,-22.575389,, 07,499,MS,INMET,S711,-55.160333,2018-04-11T21:00:00.000-03:00,POINT (-55.160333 -22.575389),Itaipu
325,0-2000-0-86916,MAL. CANDIDO RONDON,N,,Operante,Automatica,-24.53333333,0-76-0-4114609000000140, 08,392.07,PR,INMET,A820,-54.01916666,2006-11-17T21:00:00.000-03:00,POINT (-54.01916666 -24.53333333),Itaipu
332,0-2000-0-86834,MARACAJU,N,,Pane,Automatica,-21.60916666,0-76-0-5005400000000156, 07,388.94,MS,INMET,A731,-55.17749999,2006-12-14T21:00:00.000-03:00,POINT (-55.17749999 -21.60916666),Itaipu
363,,NOVA ALVORADA DO SUL,N,,Operante,Automatica,-21.450972,, 07,5,MS,INMET,S712,-54.341972,2018-02-22T21:00:00.000-03:00,POINT (-54.341972 -21.450972),Itaipu
364,,NOVA ANDRADINA,N,,Operante,Automatica,-22.0786111,, 07,372,MS,INMET,S713,-53.46583333,2018-04-08T21:00:00.000-03:00,POINT (-53.46583333 -22.0786111),Itaipu
368,0-2000-0-86919,NOVA TEBAS,N,,Pane,Automatica,-24.43722221,0-76-0-4117271000000164, 08,656.24,PR,INMET,A822,-51.96305555,2006-12-20T21:00:00.000-03:00,POINT (-51.96305555 -24.43722221),Itaipu
459,0-2000-0-86836,RIO BRILHANTE,,,Operante,Automatica,-21.774944,0-76-0-5007208000000391, 07,324.31,MS,INMET,A743,-54.528108,2008-06-25T21:00:00.000-03:00,POINT (-54.528108 -21.774944),Itaipu
545,0-2000-0-86895,SETE QUEDAS,,,Pane,Automatica,-23.96694443,0-76-0-5007703000000376, 07,398.4,MS,INMET,A751,-55.02416666,2008-06-02T21:00:00.000-03:00,POINT (-55.02416666 -23.96694443),Itaipu
546,0-2000-0-86809,SIDROLANDIA,,,Operante,Automatica,-20.98166666,0-76-0-5007901000000434, 07,471.43,MS,INMET,A754,-54.97194443,2008-09-28T21:00:00.000-03:00,POINT (-54.97194443 -20.98166666),Itaipu
51,0-2000-0-86806,BAMBUI,N,,Operante,Automatica,-20.0311111,0-76-0-3105103000000534, 05,697,MG,INMET,A565,-46.00888888,2016-11-22T21:00:00.000-03:00,POINT (-46.00888888 -20.0311111),Sobradinho
56,0-2000-0-86634,BARRA,N,,Operante,Automatica,-11.08472221,0-76-0-2902708000000362, 04,407.5,BA,INMET,A429,-43.13888888,2008-05-11T21:00:00.000-03:00,POINT (-43.13888888 -11.08472221),Sobradinho
60,0-2000-0-86652,BARREIRAS,N,,Operante,Automatica,-12.12472221,0-76-0-2903201000000018, 04,474.17,BA,INMET,A402,-45.02694443,2001-12-19T22:00:00.000-02:00,POINT (-45.02694443 -12.12472221),Sobradinho
69,0-2000-0-86800,BELO HORIZONTE (PAMPULHA),N,,Operante,Automatica,-19.88388888,0-76-0-3106200000000116, 05,854.02,MG,INMET,A521,-43.96944443,2006-10-09T21:00:00.000-03:00,POINT (-43.96944443 -19.88388888),Sobradinho
70,0-2000-0-86799,BELO HORIZONTE - CERCADINHO,N,,Operante,Automatica,-19.97999999,0-76-0-3106200000000597, 05,1199.55,MG,INMET,F501,-43.95861111,2013-12-26T21:00:00.000-03:00,POINT (-43.95861111 -19.97999999),Sobradinho
76,0-2000-0-86672,BOM JESUS DA LAPA,N,,Operante,Automatica,-13.25111111,0-76-0-2903904000000186, 04,447.75,BA,INMET,A418,-43.40527777,2007-05-17T21:00:00.000-03:00,POINT (-43.40527777 -13.25111111),Sobradinho
90,0-2000-0-86609,BURITIRAMA,N,,Pane,Automatica,-10.72305554,0-76-0-2904753000000363, 04,506.06,BA,INMET,A432,-43.65111111,2008-05-14T21:00:00.000-03:00,POINT (-43.65111111 -10.72305554),Sobradinho
91,0-2000-0-86718,BURITIS,N,,Pane,Automatica,-15.52416666,0-76-0-3109303000000214, 05,894,MG,INMET,A544,-46.43555555,2007-06-18T21:00:00.000-03:00,POINT (-46.43555555 -15.52416666),Sobradinho
145,0-2000-0-86719,CHAPADA GAUCHA,N,,Operante,Automatica,-15.30027777,0-76-0-3116159000000215, 05,873.2,MG,INMET,A548,-45.61749999,2007-06-21T21:00:00.000-03:00,POINT (-45.61749999 -15.30027777),Sobradinho
161,0-2000-0-86671,CORRENTINA,N,,Operante,Automatica,-13.33249999,0-76-0-2909307000000266, 04,551.71,BA,INMET,A416,-44.61749999,2007-11-08T21:00:00.000-03:00,POINT (-44.61749999 -13.33249999),Sobradinho
178,0-2000-0-86780,CURVELO,N,,Operante,Automatica,-18.747711,0-76-0-3120904000000158, 05,669.48,MG,INMET,A538,-44.453785,2006-12-17T21:00:00.000-03:00,POINT (-44.453785 -18.747711),Sobradinho
184,,DIVINOPOLIS,N,,Operante,Automatica,-20.17333332,0-76-0-3122306000000565, 05,796,MG,INMET,A564,-44.87499999,2017-10-25T21:00:00.000-03:00,POINT (-44.87499999 -20.17333332),Sobradinho
189,0-2000-0-86797,DORES DO INDAIA,N,,Operante,Automatica,-19.481935,0-76-0-3123205000000205, 05,721.09,MG,INMET,A536,-45.593932,2007-05-31T21:00:00.000-03:00,POINT (-45.593932 -19.481935),Sobradinho
204,0-2000-0-86695,ESPINOSA,N,,Pane,Automatica,-14.91222222,0-76-0-3124302000000273, 05,565.36,MG,INMET,A543,-42.80861111,2007-11-13T21:00:00.000-03:00,POINT (-42.80861111 -14.91222222),Sobradinho
212,0-2000-0-86798,FLORESTAL,N,,Operante,Automatica,-19.885398,0-76-0-3126000000000392, 05,753.5,MG,INMET,A535,-44.416883,2008-06-26T21:00:00.000-03:00,POINT (-44.416883 -19.885398),Sobradinho
217,0-2000-0-86623,FORMOSO DO RIO PRETO,N,,Operante,Automatica,-11.05222222,0-76-0-2911105000000517, 04,488,BA,INMET,A452,-45.20083333,2016-06-01T21:00:00.000-03:00,POINT (-45.20083333 -11.05222222),Sobradinho
234,0-2000-0-86694,GUANAMBI,N,,Operante,Automatica,-14.20805555,0-76-0-2911709000000347, 04,552.23,BA,INMET,A426,-42.74972221,2008-04-23T21:00:00.000-03:00,POINT (-42.74972221 -14.20805555),Sobradinho
243,0-2000-0-86821,IBIRITE (ROLA MOCA),,,Operante,Automatica,-20.031457,0-76-0-3129806000000378, 05,1198.82,MG,INMET,A555,-44.011249,2008-06-05T21:00:00.000-03:00,POINT (-44.011249 -20.031457),Sobradinho
246,0-2000-0-86653,IBOTIRAMA,N,,Operante,Automatica,-12.19305555,0-76-0-2913200000000355, 04,425.12,BA,INMET,A439,-43.21333333,2008-04-27T21:00:00.000-03:00,POINT (-43.21333333 -12.19305555),Sobradinho
258,0-2000-0-86635,IRECE,N,,Operante,Automatica,-11.328998,0-76-0-2914604000000325, 04,768.42,BA,INMET,A424,-41.864504,2008-03-30T21:00:00.000-03:00,POINT (-41.864504 -11.328998),Sobradinho
291,0-2000-0-86706,JANAUBA,N,,Operante,Automatica,-15.80277777,0-76-0-3135100000000533, 05,532,MG,INMET,A563,-43.29694444,2016-11-18T21:00:00.000-03:00,POINT (-43.29694444 -15.80277777),Sobradinho
292,0-2000-0-86710,JANUARIA,N,,Operante,Automatica,-15.448089,0-76-0-3135209000000521, 05,468,MG,INMET,A559,-44.366313,2016-06-22T21:00:00.000-03:00,POINT (-44.366313 -15.448089),Sobradinho
299,0-2000-0-86758,JOAO PINHEIRO,N,,Operante,Automatica,-17.784477,0-76-0-3136306000000221, 05,877.05,MG,INMET,A553,-46.119394,2007-07-06T21:00:00.000-03:00,POINT (-46.119394 -17.784477),Sobradinho
315,0-2000-0-86651,LUIZ EDUARDO MAGALHAES,N,,Operante,Automatica,-12.1525,0-76-0-2903201000000021, 04,760.68,BA,INMET,A404,-45.82972221,2002-04-17T21:00:00.000-03:00,POINT (-45.82972221 -12.1525),Sobradinho
346,0-2000-0-86720,MOCAMBINHO,N,,Operante,Automatica,-15.085958,0-76-0-3135050000000270, 05,454,MG,INMET,A539,-44.016036,2007-11-10T21:00:00.000-03:00,POINT (-44.016036 -15.085958),Sobradinho
347,0-2000-0-86693,MONTALVANIA,N,,Operante,Automatica,-14.40833333,0-76-0-3142700000000217, 05,519.52,MG,INMET,A526,-44.40416666,2007-06-25T21:00:00.000-03:00,POINT (-44.40416666 -14.40833333),Sobradinho
352,0-2000-0-86740,MONTES CLAROS,N,,Operante,Automatica,-16.68638888,0-76-0-3143302000000038, 05,645.87,MG,INMET,A506,-43.84388888,2002-12-18T22:00:00.000-02:00,POINT (-43.84388888 -16.68638888),Sobradinho
380,0-2000-0-86823,OURO BRANCO,N,,Operante,Automatica,-20.55666666,0-76-0-3145901000000091, 05,1048.2,MG,INMET,A513,-43.75611111,2006-07-27T21:00:00.000-03:00,POINT (-43.75611111 -20.55666666),Sobradinho
388,0-2000-0-86747,PARACATU,N,,Operante,Automatica,-17.24444444,0-76-0-3147006000000576, 05,705,MG,INMET,A571,-46.88166666,2018-03-15T21:00:00.000-03:00,POINT (-46.88166666 -17.24444444),Sobradinho
394,0-2000-0-86733,PARANOA (COOPA-DF),N,,Operante,Automatica,-16.012222,0-76-0-5300108000000537, 10,1043,DF,INMET,A047,-47.557417,2017-02-06T21:00:00.000-03:00,POINT (-47.557417 -16.012222),Sobradinho
417,0-2000-0-86604,PILAO ARCADO,N,,Pane,Automatica,-10.01833332,0-76-0-2924405000000513, 04,385,BA,INMET,A449,-42.50027777,2016-05-27T21:00:00.000-03:00,POINT (-42.50027777 -10.01833332),Sobradinho
420,0-2000-0-86759,PIRAPORA,N,,Operante,Automatica,-17.258064,0-76-0-3151206000000220, 05,505.32,MG,INMET,A545,-44.835556,2007-07-03T21:00:00.000-03:00,POINT (-44.835556 -17.258064),Sobradinho
427,0-2000-0-86788,POMPEU,N,,Operante,Automatica,-19.23249999,0-76-0-3152006000000504, 05,705,MG,INMET,A560,-44.96416666,2015-08-20T21:00:00.000-03:00,POINT (-44.96416666 -19.23249999),Sobradinho
454,0-2000-0-81990,REMANSO,N,,Operante,Automatica,-9.62555554,0-76-0-2926004000000321, 04,397.4,BA,INMET,A423,-42.07722221,2008-03-25T21:00:00.000-03:00,POINT (-42.07722221 -9.625555540000001),Sobradinho
491,0-2000-0-86633,SANTA RITA DE CASSIA,N,,Pane,Automatica,-11.00277777,0-76-0-2928406000000198, 04,450.01,BA,INMET,A415,-44.52499999,2007-05-27T21:00:00.000-03:00,POINT (-44.52499999 -11.00277777),Sobradinho
527,0-2000-0-86739,SAO ROMAO,N,,Operante,Automatica,-16.362747,0-76-0-3164209000000218, 05,490.29,MG,INMET,A547,-45.123801,2007-06-29T21:00:00.000-03:00,POINT (-45.123801 -16.362747),Sobradinho
544,0-2000-0-86790,SETE LAGOAS,N,,Operante,Automatica,-19.45527777,0-76-0-3167202000000520, 05,719,MG,INMET,A569,-44.17333332,2016-06-09T21:00:00.000-03:00,POINT (-44.17333332 -19.45527777),Sobradinho
572,0-2000-0-86779,TRES MARIAS,N,,Operante,Automatica,-18.200855,0-76-0-3169356000000100, 05,931.01,MG,INMET,A528,-45.459836,2006-08-24T21:00:00.000-03:00,POINT (-45.459836 -18.200855),Sobradinho
584,0-2000-0-86738,UNAI,N,,Operante,Automatica,-16.55416666,0-76-0-3170404000000212, 05,640.85,MG,INMET,A542,-46.88194443,2007-06-15T21:00:00.000-03:00,POINT (-46.88194443 -16.55416666),Sobradinho
62,0-2000-0-86908,BARUERI,,,Operante,Automatica,-23.52388888,0-76-0-3510609000000470, 07,776.5,SP,INMET,A755,-46.86944443,2011-03-28T21:00:00.000-03:00,POINT (-46.86944443 -23.52388888),Barra Bonita
81,,BRAGANCA PAULISTA,N,,Operante,Automatica,-22.951944,0-76-0-3507605000000569, 07,891,SP,INMET,A744,-46.530556,2017-12-19T21:00:00.000-03:00,POINT (-46.530556 -22.951944),Barra Bonita
350,0-2000-0-86870,MONTE VERDE,N,,Operante,Automatica,-22.86166666,0-76-0-3110509000000071, 05,1544.89,MG,INMET,A509,-46.04333333,2004-12-18T21:00:00.000-03:00,POINT (-46.04333333 -22.86166666),Barra Bonita
418,0-2000-0-86868,PIRACICABA,N,,Pane,Automatica,-22.70305555,0-76-0-3538709000000110, 07,566.46,SP,INMET,A726,-47.62333332,2006-09-25T21:00:00.000-03:00,POINT (-47.62333332 -22.70305555),Barra Bonita
524,0-2000-0-86909,SAO PAULO - INTERLAGOS,N,,Operante,Automatica,-23.724501,0-76-0-3550308000000573, 07,771,SP,INMET,A771,-46.677501,2018-03-13T21:00:00.000-03:00,POINT (-46.677501 -23.724501),Barra Bonita
525,0-2000-0-86910,SAO PAULO - MIRANTE,N,,Operante,Automatica,-23.496294,0-76-0-3550308000000089, 07,785.64,SP,INMET,A701,-46.620088,2006-07-24T21:00:00.000-03:00,POINT (-46.620088 -23.496294),Barra Bonita
553,0-2000-0-86907,SOROCABA,N,,Operante,Automatica,-23.4261111,0-76-0-3552205000000098, 07,609.33,SP,INMET,A713,-47.58555555,2006-08-21T21:00:00.000-03:00,POINT (-47.58555555 -23.4261111),Barra Bonita
150,0-2000-0-86939,CLEVELANDIA,,,Operante,Automatica,-26.41722221,0-76-0-4105706000000364, 08,966.06,PR,INMET,A876,-52.3486111,2008-05-14T21:00:00.000-03:00,POINT (-52.3486111 -26.41722221),Iguaçu
154,0-2000-0-86928,COLOMBO,N,,Operante,Automatica,-25.322464,0-76-0-4105805000000516, 08,950,PR,INMET,B806,-49.157733,2016-05-31T21:00:00.000-03:00,POINT (-49.157733 -25.322464),Iguaçu
176,0-2000-0-86933,CURITIBA,N,,Operante,Automatica,-25.4486111,0-76-0-4106902000000046, 08,922.91,PR,INMET,A807,-49.23055554,2003-01-27T22:00:00.000-02:00,POINT (-49.23055554 -25.4486111),Iguaçu
185,0-2000-0-86927,DOIS VIZINHOS,N,,Pane,Automatica,-25.69916666,0-76-0-4107207000000178, 08,545.95,PR,INMET,A843,-53.09527777,2007-03-28T21:00:00.000-03:00,POINT (-53.09527777 -25.69916666),Iguaçu
220,0-2000-0-86925,FOZ DO IGUACU,N,,Pane,Automatica,-25.60194444,0-76-0-4108304000000288, 08,235.09,PR,INMET,A846,-54.48305554,2008-02-14T21:00:00.000-03:00,POINT (-54.48305554 -25.60194444),Iguaçu
226,0-2000-0-86941,GENERAL CARNEIRO,,,Operante,Automatica,-26.3986111,0-76-0-4108502000000356, 08,1009.01,PR,INMET,A875,-51.35361111,2008-04-29T21:00:00.000-03:00,POINT (-51.35361111 -26.3986111),Iguaçu
253,0-2000-0-86929,INACIO MARTINS,N,,Operante,Automatica,-25.567879,0-76-0-4110201000000117, 08,1208.85,PR,INMET,A823,-51.077946,2006-10-15T21:00:00.000-03:00,POINT (-51.077946 -25.567879),Iguaçu
311,0-2000-0-86949,LARANJEIRAS DO SUL,N,,Operante,Automatica,-25.36888888,0-76-0-4113304000000525, 08,835,PR,INMET,B804,-52.39194444,2016-08-06T21:00:00.000-03:00,POINT (-52.39194444 -25.36888888),Iguaçu
324,0-2000-0-86942,MAJOR VIEIRA,,,Operante,Automatica,-26.3936111,0-76-0-4210308000000442, 08,799.58,SC,INMET,A864,-50.36333333,2009-02-08T21:00:00.000-03:00,POINT (-50.36333333 -26.3936111),Iguaçu
425,0-2000-0-86926,PLANALTO,,,Pane,Automatica,-25.72194443,0-76-0-4119806000000265, 08,399.1,PR,INMET,A855,-53.74805555,2007-11-06T21:00:00.000-03:00,POINT (-53.74805555 -25.72194443),Iguaçu
467,0-2000-0-86945,RIO NEGRINHO,N,,Operante,Automatica,-26.2486111,0-76-0-4215000000000320, 08,800,SC,INMET,A862,-49.57416666,2008-03-21T21:00:00.000-03:00,POINT (-49.57416666 -26.2486111),Iguaçu
520,0-2000-0-86931,SAO MATEUS DO SUL,,,Pane,Automatica,-25.83555555,0-76-0-4125605000000472, 08,780.21,PR,INMET,A874,-50.36888888,2011-04-16T21:00:00.000-03:00,POINT (-50.36888888 -25.83555555),Iguaçu
